[{'name': 'Frankfurt(Main)Hbf', 'lon': 8.663785, 'lat': 50.107149, 'id': 8000105}, {'name': 'Freiburg(Breisgau) Hbf', 'lon': 7.841174, 'lat': 47.997696, 'id': 8000107}, {'name': 'FRANKFURT(MAIN)', 'lon': 8.663785, 'lat': 50.107149, 'id': 8096021}, {'name': 'Frankfurt(M) Flughafen Fernbf', 'lon': 8.570181, 'lat': 50.053169, 'id': 8070003}, {'name': 'Frankfurt(M)Flughafen', 'lon': 8.570972, 'lat': 50.05121, 'id': 8000281}, {'name': 'Fulda', 'lon': 9.68398, 'lat': 50.554722, 'id': 8000115}, {'name': 'Flughafen Düsseldorf', 'lon': 6.767286, 'lat': 51.277707, 'id': 8096014}, {'name': 'Fürth(Bay)Hbf', 'lon': 10.989987, 'lat': 49.469706, 'id': 8000114}, {'name': 'Frankfurt(Main)Süd', 'lon': 8.686456, 'lat': 50.099365, 'id': 8002041}, {'name': 'Freilassing', 'lon': 12.977196, 'lat': 47.836915, 'id': 8000108}, {'name': 'Flensburg', 'lon': 9.436525, 'lat': 54.774043, 'id': 8000103}, {'name': 'Frankfurt(Oder)', 'lon': 14.546497, 'lat': 52.33642, 'id': 8010113}, {'name': 'Frankfurt(M) Flughafen Terminal 1-P36', 'lon': 8.577381, 'lat': 50.052837, 'id': 8089361}, {'name': 'Frankfurt(Main)West', 'lon': 8.639335, 'lat': 50.118862, 'id': 8002042}, {'name': 'Friedberg(Hess)', 'lon': 8.762056, 'lat': 50.332608, 'id': 8000111}, {'name': 'Flughafen Köln/Bonn', 'lon': 7.119304, 'lat': 50.8789, 'id': 8003330}, {'name': 'Forbach(F)', 'lon': 6.900255, 'lat': 49.189216, 'id': 8700271}, {'name': 'Frankfurt(M) Flughafen Regionalbf', 'lon': 8.57125, 'lat': 50.051219, 'id': 8070004}, {'name': 'Fischen', 'lon': 10.271713, 'lat': 47.45659, 'id': 8001995}, {'name': 'Fehmarn-Burg', 'lon': 11.188981, 'lat': 54.443591, 'id': 8001274}, {'name': 'Friedrichshafen Stadt', 'lon': 9.473902, 'lat': 47.65322, 'id': 8000112}, {'name': 'Freyburg(Unstrut)', 'lon': 11.767311, 'lat': 51.209083, 'id': 8011573}, {'name': 'Fröttstädt', 'lon': 10.573022, 'lat': 50.930355, 'id': 8010118}, {'name': 'Falkensee-Seegefeld', 'lon': 13.116808, 'lat': 52.552476, 'id': 8081586}, {'name': 'Fangschleuse', 'lon': 13.824924, 'lat': 52.406725, 'id': 8011533}, {'name': 'Feldkirchen(b München)', 'lon': 11.7321, 'lat': 48.151843, 'id': 8001973}, {'name': 'Fürstenberg(Havel)', 'lon': 13.139272, 'lat': 53.186782, 'id': 8010399}, {'name': 'Fürstenwalde(Spree)', 'lon': 14.059641, 'lat': 52.366858, 'id': 8010120}, {'name': 'Fortezza/Franzensfeste', 'lon': 11.610081, 'lat': 46.788719, 'id': 8300089}, {'name': 'Fredericia st', 'lon': 9.738814, 'lat': 55.568087, 'id': 8600623}, {'name': 'FIRENZE', 'lon': 11.249928, 'lat': 43.765835, 'id': 8396001}, {'name': 'Firenze S.M.N.', 'lon': 11.247807, 'lat': 43.776811, 'id': 8300151}, {'name': 'Feldkirch', 'lon': 9.604102, 'lat': 47.240975, 'id': 8100197}, {'name': 'Fieberbrunn', 'lon': 12.52894, 'lat': 47.491136, 'id': 8100053}, {'name': 'Flughafen Wien', 'lon': 16.563074, 'lat': 48.120902, 'id': 8100353}, {'name': 'Frantiskovy Lazne', 'lon': 12.355323, 'lat': 50.124454, 'id': 5400197}]